,Unnamed: 0,City,Country,Latitude,Longitude,year,Value,Date,Time,Min,TimeNew,VAL_0,continent
1443,1443,Hangzhou,China,30.25,120.166667,1200,255000,/01/01,1200/01/01, 00:00:00,1200/01/01 00:00:00,0.011081582,Asia
1731,1731,Fez,Morocco,34.033333,-5.01,1200,200000,/01/01,1200/01/01, 00:00:00,1200/01/01 00:00:00,0.008690265,Africa
1730,1730,Cairo,Egypt,30.06263,31.24967,1200,200000,/01/01,1200/01/01, 00:00:00,1200/01/01 00:00:00,0.008690265,Africa
1840,1840,Bagan,Myanmar,21.172111,94.8602,1200,180000,/01/01,1200/01/01, 00:00:00,1200/01/01 00:00:00,0.007820695,Asia
1867,1867,Kamakura,Japan,35.30889,139.55028,1200,175000,/01/01,1200/01/01, 00:00:00,1200/01/01 00:00:00,0.007603301999999999,Asia
2029,2029,Palermo,Italy,38.115689,13.361267,1200,150000,/01/01,1200/01/01, 00:00:00,1200/01/01 00:00:00,0.00651634,Europe
2030,2030,Seville,Spain,37.388097,-5.982331,1200,150000,/01/01,1200/01/01, 00:00:00,1200/01/01 00:00:00,0.00651634,Europe
2028,2028,Marrakech,Morocco,31.63416,-7.99994,1200,150000,/01/01,1200/01/01, 00:00:00,1200/01/01 00:00:00,0.00651634,Africa
2027,2027,Istanbul,Turkey,41.005275,28.976944,1200,150000,/01/01,1200/01/01, 00:00:00,1200/01/01 00:00:00,0.00651634,Asia
2026,2026,Gelibolu,Turkey,40.333333,26.499992,1200,150000,/01/01,1200/01/01, 00:00:00,1200/01/01 00:00:00,0.00651634,Asia
2025,2025,Angkor,Cambodia,13.412417,103.86705,1200,150000,/01/01,1200/01/01, 00:00:00,1200/01/01 00:00:00,0.00651634,Asia
2187,2187,Beijing,China,39.9075,116.39723,1200,130000,/01/01,1200/01/01, 00:00:00,1200/01/01 00:00:00,0.00564677,Asia
2188,2188,Nanjing,China,32.05,118.766667,1200,130000,/01/01,1200/01/01, 00:00:00,1200/01/01 00:00:00,0.00564677,Asia
2417,2417,Guangzhou,China,23.11667,113.25,1200,110000,/01/01,1200/01/01, 00:00:00,1200/01/01 00:00:00,0.0047772,Asia
2418,2418,Paris,France,48.856614,2.352222,1200,110000,/01/01,1200/01/01, 00:00:00,1200/01/01 00:00:00,0.0047772,Europe
2564,2564,Kaifeng,China,34.7986,114.30742,1200,100000,/01/01,1200/01/01, 00:00:00,1200/01/01 00:00:00,0.004342415,Asia
2565,2565,Kyoto,Japan,35.02107,135.75385,1200,100000,/01/01,1200/01/01, 00:00:00,1200/01/01 00:00:00,0.004342415,Asia
2563,2563,Dumyat,Egypt,31.41648,31.81332,1200,100000,/01/01,1200/01/01, 00:00:00,1200/01/01 00:00:00,0.004342415,Africa
2562,2562,Dali,China,25.606486,100.267638,1200,100000,/01/01,1200/01/01, 00:00:00,1200/01/01 00:00:00,0.004342415,Asia
2561,2561,Baghdad,Iraq,33.34058,44.40088,1200,100000,/01/01,1200/01/01, 00:00:00,1200/01/01 00:00:00,0.004342415,Asia
2755,2755,Damascus,Syria,33.5102,36.29128,1200,90000,/01/01,1200/01/01, 00:00:00,1200/01/01 00:00:00,0.00390763,Asia
2994,2994,Rayy,Iran,35.5833,51.4333,1200,80000,/01/01,1200/01/01, 00:00:00,1200/01/01 00:00:00,0.003472845,Asia
2995,2995,Tbilisi,Georgia,41.709975,44.792989,1200,80000,/01/01,1200/01/01, 00:00:00,1200/01/01 00:00:00,0.003472845,Asia
2996,2996,Wuhan,China,30.58333,114.26667,1200,80000,/01/01,1200/01/01, 00:00:00,1200/01/01 00:00:00,0.003472845,Asia
2997,2997,Yinchuan,China,38.4667,106.2667,1200,80000,/01/01,1200/01/01, 00:00:00,1200/01/01 00:00:00,0.003472845,Asia
3185,3185,Polonnaruwa,Sri Lanka,7.93965,81.00274,1200,75000,/01/01,1200/01/01, 00:00:00,1200/01/01 00:00:00,0.0032554520000000003,Asia
3390,3390,Bukhara,Uzbekistan,39.765869,64.422347,1200,70000,/01/01,1200/01/01, 00:00:00,1200/01/01 00:00:00,0.00303806,Asia
3391,3391,Esfahan,Iran,32.651389,51.679192,1200,70000,/01/01,1200/01/01, 00:00:00,1200/01/01 00:00:00,0.00303806,Asia
3392,3392,Konya,Turkey,37.87135,32.48464,1200,70000,/01/01,1200/01/01, 00:00:00,1200/01/01 00:00:00,0.00303806,Asia
3393,3393,Tsinkiang,China,24.913889,118.58583,1200,70000,/01/01,1200/01/01, 00:00:00,1200/01/01 00:00:00,0.00303806,Asia
3394,3394,Venice,Italy,45.440847,12.315514,1200,70000,/01/01,1200/01/01, 00:00:00,1200/01/01 00:00:00,0.00303806,Europe
3741,3741,Suzhou,China,31.3,120.6,1200,63000,/01/01,1200/01/01, 00:00:00,1200/01/01 00:00:00,0.0027337109999999998,Asia
3888,3888,Samarkand,Uzbekistan,39.6576,66.947561,1200,60000,/01/01,1200/01/01, 00:00:00,1200/01/01 00:00:00,0.002603275,Asia
3886,3886,Haining,China,30.533333,120.683333,1200,60000,/01/01,1200/01/01, 00:00:00,1200/01/01 00:00:00,0.002603275,Asia
3887,3887,Milan,Italy,45.465453,9.198786,1200,60000,/01/01,1200/01/01, 00:00:00,1200/01/01 00:00:00,0.002603275,Europe
3885,3885,Granada,Spain,37.177336,-3.598558,1200,60000,/01/01,1200/01/01, 00:00:00,1200/01/01 00:00:00,0.002603275,Europe
3883,3883,Delhi,India,28.65381,77.22897,1200,60000,/01/01,1200/01/01, 00:00:00,1200/01/01 00:00:00,0.002603275,Asia
3884,3884,Gauda,India,24.866667,88.133333,1200,60000,/01/01,1200/01/01, 00:00:00,1200/01/01 00:00:00,0.002603275,Asia
3882,3882,Cordoba,Spain,38.046133,-4.893564,1200,60000,/01/01,1200/01/01, 00:00:00,1200/01/01 00:00:00,0.002603275,Europe
4647,4647,Tenayuca,Mexico,19.532167,-99.168472,1200,50000,/01/01,1200/01/01, 00:00:00,1200/01/01 00:00:00,0.00216849,Americas
4641,4641,Kalinjar,India,25.011586,80.472977,1200,50000,/01/01,1200/01/01, 00:00:00,1200/01/01 00:00:00,0.00216849,Asia
4648,4648,Yangzhou,China,32.4,铆_っ_铆_芭_119.416667,1200,50000,/01/01,1200/01/01, 00:00:00,1200/01/01 00:00:00,0.00216849,Asia
4645,4645,Qom,Iran,34.6401,50.8764,1200,50000,/01/01,1200/01/01, 00:00:00,1200/01/01 00:00:00,0.00216849,Asia
4644,4644,Mosul,Iraq,36.335,43.11889,1200,50000,/01/01,1200/01/01, 00:00:00,1200/01/01 00:00:00,0.00216849,Asia
4643,4643,Luoyang,China,34.669722,112.442222,1200,50000,/01/01,1200/01/01, 00:00:00,1200/01/01 00:00:00,0.00216849,Asia
4642,4642,Kush,Egypt,18.53,31.84,1200,50000,/01/01,1200/01/01, 00:00:00,1200/01/01 00:00:00,0.00216849,Africa
4646,4646,Rabat,Morocco,34.01325,-6.83255,1200,50000,/01/01,1200/01/01, 00:00:00,1200/01/01 00:00:00,0.00216849,Africa
4640,4640,Jingdezhen,China,29.268836,117.17842,1200,50000,/01/01,1200/01/01, 00:00:00,1200/01/01 00:00:00,0.00216849,Asia
4639,4639,Fuzhou,China,26.076111,119.306389,1200,50000,/01/01,1200/01/01, 00:00:00,1200/01/01 00:00:00,0.00216849,Asia
4638,4638,Firuzkoh,Afghanistan,34.099578,64.905956,1200,50000,/01/01,1200/01/01, 00:00:00,1200/01/01 00:00:00,0.00216849,Asia
4637,4637,Cologne,Germany,50.937531,6.960278,1200,50000,/01/01,1200/01/01, 00:00:00,1200/01/01 00:00:00,0.00216849,Europe
4636,4636,Cambay,India,22.313114,72.619408,1200,50000,/01/01,1200/01/01, 00:00:00,1200/01/01 00:00:00,0.00216849,Asia
4635,4635,Bejaia,Algeria,36.75,5.066667,1200,50000,/01/01,1200/01/01, 00:00:00,1200/01/01 00:00:00,0.00216849,Africa
4634,4634,Basra,Iraq,30.5,47.816667,1200,50000,/01/01,1200/01/01, 00:00:00,1200/01/01 00:00:00,0.00216849,Asia
4633,4633,Alexandria,Egypt,31.200092,29.918739,1200,50000,/01/01,1200/01/01, 00:00:00,1200/01/01 00:00:00,0.00216849,Africa
5031,5031,Balasaghun,Kyrgyzstan,42.379739,75.250456,1200,47000,/01/01,1200/01/01, 00:00:00,1200/01/01 00:00:00,0.002038055,Asia
5032,5032,Xiangyang,China,32.017,112.133,1200,47000,/01/01,1200/01/01, 00:00:00,1200/01/01 00:00:00,0.002038055,Asia
5071,5071,Chengdu,China,30.66667,104.06667,1200,46000,/01/01,1200/01/01, 00:00:00,1200/01/01 00:00:00,0.001994576,Asia
5142,5142,Aleppo,Syria,36.216667,37.166667,1200,45000,/01/01,1200/01/01, 00:00:00,1200/01/01 00:00:00,0.0019510979999999999,Asia
5143,5143,Sivas,Turkey,39.74833,37.01611,1200,45000,/01/01,1200/01/01, 00:00:00,1200/01/01 00:00:00,0.0019510979999999999,Asia
5277,5277,Herat,Afghanistan,34.34817,62.19967,1200,44000,/01/01,1200/01/01, 00:00:00,1200/01/01 00:00:00,0.001907619,Asia
5563,5563,Acre,Israel,32.927778,35.081667,1200,40000,/01/01,1200/01/01, 00:00:00,1200/01/01 00:00:00,0.001733705,Asia
5564,5564,Ceuta,Spain,35.88933,-5.31979,1200,40000,/01/01,1200/01/01, 00:00:00,1200/01/01 00:00:00,0.001733705,Europe
5565,5565,Kayseri,Turkey,38.73222,35.48528,1200,40000,/01/01,1200/01/01, 00:00:00,1200/01/01 00:00:00,0.001733705,Asia
5566,5566,Kish,Iran,32.55217989,44.5856425,1200,40000,/01/01,1200/01/01, 00:00:00,1200/01/01 00:00:00,0.001733705,Asia
5567,5567,Leon,Spain,42.605556,-5.57,1200,40000,/01/01,1200/01/01, 00:00:00,1200/01/01 00:00:00,0.001733705,Europe
5568,5568,London,United Kingdom,51.511214,-0.119825,1200,40000,/01/01,1200/01/01, 00:00:00,1200/01/01 00:00:00,0.001733705,Europe
5569,5569,Rouen,France,49.44313,1.09932,1200,40000,/01/01,1200/01/01, 00:00:00,1200/01/01 00:00:00,0.001733705,Europe
6132,6132,Rome,Italy,41.89474,12.4839,1200,35000,/01/01,1200/01/01, 00:00:00,1200/01/01 00:00:00,0.0015163129999999998,Europe
6133,6133,Smolensk,Russian Federation,54.7818,32.0401,1200,35000,/01/01,1200/01/01, 00:00:00,1200/01/01 00:00:00,0.0015163129999999998,Europe
6134,6134,Veliko Tarnovo,Bulgaria,43.083333,25.65,1200,35000,/01/01,1200/01/01, 00:00:00,1200/01/01 00:00:00,0.0015163129999999998,Europe
6131,6131,Naples,Italy,40.851775,14.268122,1200,35000,/01/01,1200/01/01, 00:00:00,1200/01/01 00:00:00,0.0015163129999999998,Europe
6129,6129,Bologna,Italy,44.49381,11.33875,1200,35000,/01/01,1200/01/01, 00:00:00,1200/01/01 00:00:00,0.0015163129999999998,Europe
6130,6130,Messina,Italy,38.19327,15.54969,1200,35000,/01/01,1200/01/01, 00:00:00,1200/01/01 00:00:00,0.0015163129999999998,Europe
6374,6374,Verona,Italy,45.43419,10.99779,1200,33000,/01/01,1200/01/01, 00:00:00,1200/01/01 00:00:00,0.0014293560000000001,Europe
6479,6479,Multan,Pakistan,30.19556,71.47528,1200,32000,/01/01,1200/01/01, 00:00:00,1200/01/01 00:00:00,0.0013858770000000002,Asia
6480,6480,Toledo,Spain,39.862831,-4.027322,1200,32000,/01/01,1200/01/01, 00:00:00,1200/01/01 00:00:00,0.0013858770000000002,Europe
6557,6557,Narbonne,France,43.18333,3,1200,31000,/01/01,1200/01/01, 00:00:00,1200/01/01 00:00:00,0.001342399,Europe
6699,6699,Kiev,Ukraine,50.45466,30.5238,1200,30000,/01/01,1200/01/01, 00:00:00,1200/01/01 00:00:00,0.00129892,Europe
6703,6703,Thessaloniki,Greece,40.63935,22.944606,1200,30000,/01/01,1200/01/01, 00:00:00,1200/01/01 00:00:00,0.00129892,Europe
6702,6702,Speyer,Germany,49.320478,8.436217,1200,30000,/01/01,1200/01/01, 00:00:00,1200/01/01 00:00:00,0.00129892,Europe
6701,6701,Nadiya,India,23.501389,73.960963,1200,30000,/01/01,1200/01/01, 00:00:00,1200/01/01 00:00:00,0.00129892,Asia
6700,6700,Liaoyang,China,41.266667,123.183333,1200,30000,/01/01,1200/01/01, 00:00:00,1200/01/01 00:00:00,0.00129892,Asia
6696,6696,Genova,Italy,44.40565,8.946256,1200,30000,/01/01,1200/01/01, 00:00:00,1200/01/01 00:00:00,0.00129892,Europe
6698,6698,Kerman,Iran,30.28321,57.07879,1200,30000,/01/01,1200/01/01, 00:00:00,1200/01/01 00:00:00,0.00129892,Asia
6697,6697,Kaesong,North Korea,37.97083,126.55444,1200,30000,/01/01,1200/01/01, 00:00:00,1200/01/01 00:00:00,0.00129892,Asia
6695,6695,Dongola,Sudan,19.16667,30.48333,1200,30000,/01/01,1200/01/01, 00:00:00,1200/01/01 00:00:00,0.00129892,Africa
6694,6694,Dhar,India,22.59373,75.29774,1200,30000,/01/01,1200/01/01, 00:00:00,1200/01/01 00:00:00,0.00129892,Asia
7107,7107,Worms,Germany,49.63278,8.35916,1200,28000,/01/01,1200/01/01, 00:00:00,1200/01/01 00:00:00,0.001211963,Europe
7189,7189,Orleans,France,47.902964,1.90925,1200,27000,/01/01,1200/01/01, 00:00:00,1200/01/01 00:00:00,0.001168485,Europe
7344,7344,Asyut,Egypt,27.18096,31.18368,1200,25000,/01/01,1200/01/01, 00:00:00,1200/01/01 00:00:00,0.001081528,Africa
7352,7352,Novgorod,Russian Federation,58.525569,31.274192,1200,25000,/01/01,1200/01/01, 00:00:00,1200/01/01 00:00:00,0.001081528,Europe
7357,7357,Trier,Germany,49.75565,6.63935,1200,25000,/01/01,1200/01/01, 00:00:00,1200/01/01 00:00:00,0.001081528,Europe
7356,7356,Soba,Sudan,15.523889,32.680833,1200,25000,/01/01,1200/01/01, 00:00:00,1200/01/01 00:00:00,0.001081528,Africa
7355,7355,Poitiers,France,46.58333,0.33333,1200,25000,/01/01,1200/01/01, 00:00:00,1200/01/01 00:00:00,0.001081528,Europe
7354,7354,Pisa,Italy,43.71553,10.39659,1200,25000,/01/01,1200/01/01, 00:00:00,1200/01/01 00:00:00,0.001081528,Europe
7345,7345,Coimbra,Portugal,40.20564,-8.41955,1200,25000,/01/01,1200/01/01, 00:00:00,1200/01/01 00:00:00,0.001081528,Europe
7353,7353,Pavia,Italy,45.18446,9.16145,1200,25000,/01/01,1200/01/01, 00:00:00,1200/01/01 00:00:00,0.001081528,Europe
7351,7351,Mainz,Germany,49.98419,8.2791,1200,25000,/01/01,1200/01/01, 00:00:00,1200/01/01 00:00:00,0.001081528,Europe
7350,7350,Lakkundi,India,15.389314,75.716929,1200,25000,/01/01,1200/01/01, 00:00:00,1200/01/01 00:00:00,0.001081528,Asia
7349,7349,Konye-Urgench,Turkmenistan,42.333333,59.15,1200,25000,/01/01,1200/01/01, 00:00:00,1200/01/01 00:00:00,0.001081528,Asia
7348,7348,Kano,Nigeria,12.00012,8.51672,1200,25000,/01/01,1200/01/01, 00:00:00,1200/01/01 00:00:00,0.001081528,Africa
7347,7347,Gent,Belgium,51.053469,3.730378,1200,25000,/01/01,1200/01/01, 00:00:00,1200/01/01 00:00:00,0.001081528,Europe
7346,7346,Cremona,Italy,45.13617,10.02797,1200,25000,/01/01,1200/01/01, 00:00:00,1200/01/01 00:00:00,0.001081528,Europe
7689,7689,Metz,France,49.11911,6.17269,1200,23000,/01/01,1200/01/01, 00:00:00,1200/01/01 00:00:00,0.000994571,Europe
7690,7690,Palma,Spain,39.56939,2.65024,1200,23000,/01/01,1200/01/01, 00:00:00,1200/01/01 00:00:00,0.000994571,Europe
7798,7798,Lyon,France,45.74846,4.84671,1200,22000,/01/01,1200/01/01, 00:00:00,1200/01/01 00:00:00,0.000951092,Europe
7799,7799,Prague,Austria,50.08804,14.42076,1200,22000,/01/01,1200/01/01, 00:00:00,1200/01/01 00:00:00,0.000951092,Europe
7915,7915,Erfurt,Germany,50.9787,11.03283,1200,21000,/01/01,1200/01/01, 00:00:00,1200/01/01 00:00:00,0.000907614,Europe
7914,7914,Braunschweig,Germany,52.268875,10.526769,1200,21000,/01/01,1200/01/01, 00:00:00,1200/01/01 00:00:00,0.000907614,Europe
8029,8029,Padua,Italy,45.406436,11.876761,1200,20000,/01/01,1200/01/01, 00:00:00,1200/01/01 00:00:00,0.000864135,Europe
8023,8023,Angers,France,47.46667,-0.55,1200,20000,/01/01,1200/01/01, 00:00:00,1200/01/01 00:00:00,0.000864135,Europe
8034,8034,Troyes,France,48.3,4.08333,1200,20000,/01/01,1200/01/01, 00:00:00,1200/01/01 00:00:00,0.000864135,Europe
8032,8032,Toulouse,France,43.60426,1.44367,1200,20000,/01/01,1200/01/01, 00:00:00,1200/01/01 00:00:00,0.000864135,Europe
8031,8031,Saint-Omer,France,50.750114,2.252208,1200,20000,/01/01,1200/01/01, 00:00:00,1200/01/01 00:00:00,0.000864135,Europe
8030,8030,Provins,France,48.55,3.3,1200,20000,/01/01,1200/01/01, 00:00:00,1200/01/01 00:00:00,0.000864135,Europe
8033,8033,Tours,France,47.38333,0.68333,1200,20000,/01/01,1200/01/01, 00:00:00,1200/01/01 00:00:00,0.000864135,Europe
8028,8028,Marseille,France,43.29695,5.38107,1200,20000,/01/01,1200/01/01, 00:00:00,1200/01/01 00:00:00,0.000864135,Europe
8027,8027,Liege,Belgium,50.63373,5.56749,1200,20000,/01/01,1200/01/01, 00:00:00,1200/01/01 00:00:00,0.000864135,Europe
8026,8026,Kilwa,Tanzania,-9.149644,38.987675,1200,20000,/01/01,1200/01/01, 00:00:00,1200/01/01 00:00:00,0.000864135,Africa
8025,8025,Caen,France,49.18585,-0.35912,1200,20000,/01/01,1200/01/01, 00:00:00,1200/01/01 00:00:00,0.000864135,Europe
8024,8024,Beziers,France,43.34762,3.21899,1200,20000,/01/01,1200/01/01, 00:00:00,1200/01/01 00:00:00,0.000864135,Europe
8309,8309,Esztergom,Hungary,47.7928,18.74148,1200,18000,/01/01,1200/01/01, 00:00:00,1200/01/01 00:00:00,0.000777178,Europe
8310,8310,Ferrara,Italy,44.82678,11.62071,1200,18000,/01/01,1200/01/01, 00:00:00,1200/01/01 00:00:00,0.000777178,Europe
8311,8311,Vladimir,Russian Federation,56.13655,40.39658,1200,18000,/01/01,1200/01/01, 00:00:00,1200/01/01 00:00:00,0.000777178,Europe
8422,8422,Arles,France,43.6767,4.6278,1200,17000,/01/01,1200/01/01, 00:00:00,1200/01/01 00:00:00,0.0007337000000000001,Europe
8571,8571,Lisbon,Portugal,38.71667,-9.13333,1200,15000,/01/01,1200/01/01, 00:00:00,1200/01/01 00:00:00,0.0006467430000000001,Europe
8575,8575,Zaragoza,Spain,41.648792,-0.889581,1200,15000,/01/01,1200/01/01, 00:00:00,1200/01/01 00:00:00,0.0006467430000000001,Europe
8574,8574,Wiener Neustadt,Austria,47.8,16.25,1200,15000,/01/01,1200/01/01, 00:00:00,1200/01/01 00:00:00,0.0006467430000000001,Europe
8573,8573,Soest,Germany,51.57558,8.10619,1200,15000,/01/01,1200/01/01, 00:00:00,1200/01/01 00:00:00,0.0006467430000000001,Europe
8572,8572,Siena,Italy,43.32004,11.33283,1200,15000,/01/01,1200/01/01, 00:00:00,1200/01/01 00:00:00,0.0006467430000000001,Europe
8568,8568,Bordeaux,France,44.84044,-0.5805,1200,15000,/01/01,1200/01/01, 00:00:00,1200/01/01 00:00:00,0.0006467430000000001,Europe
8570,8570,Jerez de la Frontera,Spain,36.6936,-6.132431,1200,15000,/01/01,1200/01/01, 00:00:00,1200/01/01 00:00:00,0.0006467430000000001,Europe
8569,8569,Florence,Italy,43.771033,11.248,1200,15000,/01/01,1200/01/01, 00:00:00,1200/01/01 00:00:00,0.0006467430000000001,Europe
8567,8567,Barcelona,Spain,41.38879,2.15899,1200,15000,/01/01,1200/01/01, 00:00:00,1200/01/01 00:00:00,0.0006467430000000001,Europe
8566,8566,Alessandria,Italy,44.91245,8.61894,1200,15000,/01/01,1200/01/01, 00:00:00,1200/01/01 00:00:00,0.0006467430000000001,Europe
8732,8732,Montpellier,France,43.61092,3.87723,1200,13500,/01/01,1200/01/01, 00:00:00,1200/01/01 00:00:00,0.000581525,Europe
8809,8809,Augsberg,Germany,48.371444,10.898239,1200,12000,/01/01,1200/01/01, 00:00:00,1200/01/01 00:00:00,0.0005163069999999999,Europe
8810,8810,Mantova,Italy,45.156417,10.791375,1200,12000,/01/01,1200/01/01, 00:00:00,1200/01/01 00:00:00,0.0005163069999999999,Europe
8811,8811,Reims,France,49.25,4.03333,1200,12000,/01/01,1200/01/01, 00:00:00,1200/01/01 00:00:00,0.0005163069999999999,Europe
8812,8812,Utrecht,Netherlands,52.09083,5.12222,1200,12000,/01/01,1200/01/01, 00:00:00,1200/01/01 00:00:00,0.0005163069999999999,Europe
8813,8813,Vienna,Austria,48.20849,16.37208,1200,12000,/01/01,1200/01/01, 00:00:00,1200/01/01 00:00:00,0.0005163069999999999,Europe
8924,8924,Lucca,Italy,43.84357,10.50585,1200,10000,/01/01,1200/01/01, 00:00:00,1200/01/01 00:00:00,0.00042935,Europe
9092,9092,Louveigne,Belgium,50.877572,4.704328,1200,7000,/01/01,1200/01/01, 00:00:00,1200/01/01 00:00:00,0.000298915,Europe
9128,9128,Avignon,France,43.94834,4.80892,1200,6000,/01/01,1200/01/01, 00:00:00,1200/01/01 00:00:00,0.000255436,Europe
9239,9239,Geneva,Switzerland,46.198392,6.142297,1200,3300,/01/01,1200/01/01, 00:00:00,1200/01/01 00:00:00,0.000138044,Europe
9242,9242,Frankfurt am Main,Germany,50.110922,8.682128,1200,3000,/01/01,1200/01/01, 00:00:00,1200/01/01 00:00:00,0.000125001,Europe
