,Unnamed: 0,City,Country,Latitude,Longitude,year,Value,Date,Time,Min,TimeNew,VAL_0,continent
624,624,Istanbul,Turkey,41.005275,28.976944,1700,700000,/01/01,1700/01/01, 00:00:00,1700/01/01 00:00:00,0.030429513,Asia
650,650,Tokyo,Japan,35.6895,139.69171,1700,688000,/01/01,1700/01/01, 00:00:00,1700/01/01 00:00:00,0.029907771,Asia
690,690,Beijing,China,39.9075,116.39723,1700,650000,/01/01,1700/01/01, 00:00:00,1700/01/01 00:00:00,0.028255587999999998,Asia
831,831,London,United Kingdom,51.511214,-0.119825,1700,550000,/01/01,1700/01/01, 00:00:00,1700/01/01 00:00:00,0.023907739,Europe
863,863,Paris,France,48.856614,2.352222,1700,530000,/01/01,1700/01/01, 00:00:00,1700/01/01 00:00:00,0.023038169,Europe
1097,1097,Ahmedabad,India,23.039568,72.566004,1700,385000,/01/01,1700/01/01, 00:00:00,1700/01/01 00:00:00,0.016733787,Asia
1110,1110,Osaka,Japan,34.693216,135.502082,1700,380000,/01/01,1700/01/01, 00:00:00,1700/01/01 00:00:00,0.016516394,Asia
1163,1163,Kyoto,Japan,35.02107,135.75385,1700,350000,/01/01,1700/01/01, 00:00:00,1700/01/01 00:00:00,0.015212038999999998,Asia
1162,1162,Esfahan,Iran,32.651389,51.679192,1700,350000,/01/01,1700/01/01, 00:00:00,1700/01/01 00:00:00,0.015212038999999998,Asia
1262,1262,Hangzhou,China,30.25,120.166667,1700,303000,/01/01,1700/01/01, 00:00:00,1700/01/01 00:00:00,0.01316855,Asia
1656,1656,Amsterdam,Netherlands,52.37403,4.88969,1700,210000,/01/01,1700/01/01, 00:00:00,1700/01/01 00:00:00,0.00912505,Europe
1680,1680,Naples,Italy,40.851775,14.268122,1700,207000,/01/01,1700/01/01, 00:00:00,1700/01/01 00:00:00,0.008994614,Europe
1748,1748,Aurangabad,India,19.876165,75.343314,1700,200000,/01/01,1700/01/01, 00:00:00,1700/01/01 00:00:00,0.008690265,Asia
1749,1749,Guangzhou,China,23.11667,113.25,1700,200000,/01/01,1700/01/01, 00:00:00,1700/01/01 00:00:00,0.008690265,Asia
1808,1808,Lisbon,Portugal,38.71667,-9.13333,1700,188000,/01/01,1700/01/01, 00:00:00,1700/01/01 00:00:00,0.008168523,Europe
1871,1871,Cairo,Egypt,30.06263,31.24967,1700,175000,/01/01,1700/01/01, 00:00:00,1700/01/01 00:00:00,0.007603301999999999,Africa
1920,1920,Xian,China,34.341485,108.940404,1700,167000,/01/01,1700/01/01, 00:00:00,1700/01/01 00:00:00,0.0072554740000000005,Asia
1975,1975,Seoul,Republic of Korea,37.56826,126.97783,1700,158000,/01/01,1700/01/01, 00:00:00,1700/01/01 00:00:00,0.006864168,Asia
2059,2059,Ayutthaya,Thailand,14.35,100.55,1700,150000,/01/01,1700/01/01, 00:00:00,1700/01/01 00:00:00,0.00651634,Asia
2060,2060,Dhaka,India,23.709921,90.407143,1700,150000,/01/01,1700/01/01, 00:00:00,1700/01/01 00:00:00,0.00651634,Asia
2102,2102,Venice,Italy,45.440847,12.315514,1700,144000,/01/01,1700/01/01, 00:00:00,1700/01/01 00:00:00,0.0062554690000000005,Europe
2124,2124,Nanjing,China,32.05,118.766667,1700,140000,/01/01,1700/01/01, 00:00:00,1700/01/01 00:00:00,0.006081555,Asia
2125,2125,Suzhou,China,31.3,120.6,1700,140000,/01/01,1700/01/01, 00:00:00,1700/01/01 00:00:00,0.006081555,Asia
2136,2136,Rome,Italy,41.89474,12.4839,1700,138000,/01/01,1700/01/01, 00:00:00,1700/01/01 00:00:00,0.005994598,Europe
2157,2157,Smyrna,Turkey,38.41273,27.13838,1700,135000,/01/01,1700/01/01, 00:00:00,1700/01/01 00:00:00,0.005864161999999999,Asia
2269,2269,Srinagar,India,34.08842,74.80298,1700,125000,/01/01,1700/01/01, 00:00:00,1700/01/01 00:00:00,0.005429376999999999,Asia
2268,2268,Palermo,Italy,38.115689,13.361267,1700,125000,/01/01,1700/01/01, 00:00:00,1700/01/01 00:00:00,0.005429376999999999,Europe
2373,2373,Moscow,Russian Federation,55.75222,37.61556,1700,114000,/01/01,1700/01/01, 00:00:00,1700/01/01 00:00:00,0.004951114,Europe
2385,2385,Milan,Italy,45.465453,9.198786,1700,113000,/01/01,1700/01/01, 00:00:00,1700/01/01 00:00:00,0.004907635,Europe
2428,2428,Wuhan,China,30.58333,114.26667,1700,110000,/01/01,1700/01/01, 00:00:00,1700/01/01 00:00:00,0.0047772,Asia
2483,2483,Madrid,Spain,40.416775,-3.703789,1700,105000,/01/01,1700/01/01, 00:00:00,1700/01/01 00:00:00,0.004559807,Europe
2484,2484,Vienna,Austria,48.20849,16.37208,1700,105000,/01/01,1700/01/01, 00:00:00,1700/01/01 00:00:00,0.004559807,Europe
2610,2610,Jingdezhen,China,29.268836,117.17842,1700,100000,/01/01,1700/01/01, 00:00:00,1700/01/01 00:00:00,0.004342415,Asia
2611,2611,Patna,India,25.610533,85.14145,1700,100000,/01/01,1700/01/01, 00:00:00,1700/01/01 00:00:00,0.004342415,Asia
2657,2657,Lyon,France,45.74846,4.84671,1700,97000,/01/01,1700/01/01, 00:00:00,1700/01/01 00:00:00,0.004211979,Europe
2797,2797,Yinchuan,China,38.4667,106.2667,1700,90000,/01/01,1700/01/01, 00:00:00,1700/01/01 00:00:00,0.00390763,Asia
2880,2880,Algiers,Algiers,36.7525,3.04197,1700,85000,/01/01,1700/01/01, 00:00:00,1700/01/01 00:00:00,0.0036902370000000003,Africa
2882,2882,Mexico City,Mexico,19.42847,-99.12766,1700,85000,/01/01,1700/01/01, 00:00:00,1700/01/01 00:00:00,0.0036902370000000003,Americas
2881,2881,Edirne,Turkey,41.681808,26.562269,1700,85000,/01/01,1700/01/01, 00:00:00,1700/01/01 00:00:00,0.0036902370000000003,Asia
2942,2942,Potosi,Bolivia,-19.58361,-65.75306,1700,82000,/01/01,1700/01/01, 00:00:00,1700/01/01 00:00:00,0.003559802,Americas
3049,3049,Bukhara,Uzbekistan,39.765869,64.422347,1700,80000,/01/01,1700/01/01, 00:00:00,1700/01/01 00:00:00,0.003472845,Asia
3050,3050,Dublin,Ireland,53.33306,-6.24889,1700,80000,/01/01,1700/01/01, 00:00:00,1700/01/01 00:00:00,0.003472845,Europe
3051,3051,Fez,Morocco,34.033333,-5.01,1700,80000,/01/01,1700/01/01, 00:00:00,1700/01/01 00:00:00,0.003472845,Africa
3052,3052,Lhasa,China,29.645563,91.140749,1700,80000,/01/01,1700/01/01, 00:00:00,1700/01/01 00:00:00,0.003472845,Asia
3053,3053,Seville,Spain,37.388097,-5.982331,1700,80000,/01/01,1700/01/01, 00:00:00,1700/01/01 00:00:00,0.003472845,Europe
3230,3230,Varanasi,India,25.317645,82.973914,1700,75000,/01/01,1700/01/01, 00:00:00,1700/01/01 00:00:00,0.0032554520000000003,Asia
3231,3231,Xuzhou,China,34.26,117.21,1700,75000,/01/01,1700/01/01, 00:00:00,1700/01/01 00:00:00,0.0032554520000000003,Asia
3227,3227,Inwa,Myanmar,21.857353,95.981936,1700,75000,/01/01,1700/01/01, 00:00:00,1700/01/01 00:00:00,0.0032554520000000003,Asia
3229,3229,Tabriz,Iran,38.08,46.2919,1700,75000,/01/01,1700/01/01, 00:00:00,1700/01/01 00:00:00,0.0032554520000000003,Asia
3228,3228,Marseille,France,43.29695,5.38107,1700,75000,/01/01,1700/01/01, 00:00:00,1700/01/01 00:00:00,0.0032554520000000003,Europe
3330,3330,Gondar,Ethiopia,12.600003,37.466669,1700,72000,/01/01,1700/01/01, 00:00:00,1700/01/01 00:00:00,0.0031250170000000003,Africa
3331,3331,Ningbo,China,29.866667,121.55,1700,72000,/01/01,1700/01/01, 00:00:00,1700/01/01 00:00:00,0.0031250170000000003,Asia
3453,3453,Tianjin,China,39.14222,117.17667,1700,70000,/01/01,1700/01/01, 00:00:00,1700/01/01 00:00:00,0.00303806,Asia
3451,3451,Meknes,Morocco,33.89352,-5.54727,1700,70000,/01/01,1700/01/01, 00:00:00,1700/01/01 00:00:00,0.00303806,Africa
3452,3452,Nagara,India,13.824,75.034,1700,70000,/01/01,1700/01/01, 00:00:00,1700/01/01 00:00:00,0.00303806,Asia
3448,3448,Arakan,Myanmar,19.810092,93.987842,1700,70000,/01/01,1700/01/01, 00:00:00,1700/01/01 00:00:00,0.00303806,Asia
3450,3450,Damascus,Syria,33.5102,36.29128,1700,70000,/01/01,1700/01/01, 00:00:00,1700/01/01 00:00:00,0.00303806,Asia
3449,3449,Brussel,Belgium,50.85045,4.34878,1700,70000,/01/01,1700/01/01, 00:00:00,1700/01/01 00:00:00,0.00303806,Europe
3447,3447,Agra,India,27.18333,78.01667,1700,70000,/01/01,1700/01/01, 00:00:00,1700/01/01 00:00:00,0.00303806,Asia
3510,3510,Tunis,Tunisia,36.818811,10.165961,1700,69000,/01/01,1700/01/01, 00:00:00,1700/01/01 00:00:00,0.0029945809999999996,Africa
3530,3530,Chinkiang,China,32.2,119.416667,1700,68000,/01/01,1700/01/01, 00:00:00,1700/01/01 00:00:00,0.002951103,Asia
3531,3531,Florence,Italy,43.771033,11.248,1700,68000,/01/01,1700/01/01, 00:00:00,1700/01/01 00:00:00,0.002951103,Europe
3564,3564,Aleppo,Syria,36.216667,37.166667,1700,67000,/01/01,1700/01/01, 00:00:00,1700/01/01 00:00:00,0.002907624,Asia
3565,3565,Antwerp,Belgium,51.219217,4.402883,1700,67000,/01/01,1700/01/01, 00:00:00,1700/01/01 00:00:00,0.002907624,Europe
3566,3566,Fuzhou,China,26.076111,119.306389,1700,67000,/01/01,1700/01/01, 00:00:00,1700/01/01 00:00:00,0.002907624,Asia
3567,3567,Genova,Italy,44.40565,8.946256,1700,67000,/01/01,1700/01/01, 00:00:00,1700/01/01 00:00:00,0.002907624,Europe
3568,3568,Kanazawa,Japan,36.561325,136.656206,1700,67000,/01/01,1700/01/01, 00:00:00,1700/01/01 00:00:00,0.002907624,Asia
3665,3665,Nagoya,Japan,35.181447,136.906397,1700,65000,/01/01,1700/01/01, 00:00:00,1700/01/01 00:00:00,0.0028206679999999997,Asia
3751,3751,Puebla,Mexico,19.0514,-98.2178,1700,63000,/01/01,1700/01/01, 00:00:00,1700/01/01 00:00:00,0.0027337109999999998,Americas
3752,3752,Rouen,France,49.44313,1.09932,1700,63000,/01/01,1700/01/01, 00:00:00,1700/01/01 00:00:00,0.0027337109999999998,Europe
3749,3749,Bologna,Italy,44.49381,11.33875,1700,63000,/01/01,1700/01/01, 00:00:00,1700/01/01 00:00:00,0.0027337109999999998,Europe
3750,3750,Hamburg,Germany,53.57532,10.01534,1700,63000,/01/01,1700/01/01, 00:00:00,1700/01/01 00:00:00,0.0027337109999999998,Europe
3782,3782,Copenhagen,Denmark,55.67594,12.56553,1700,62000,/01/01,1700/01/01, 00:00:00,1700/01/01 00:00:00,0.0026902320000000003,Europe
3817,3817,Sendai,Japan,38.266667,140.866667,1700,61000,/01/01,1700/01/01, 00:00:00,1700/01/01 00:00:00,0.0026467540000000003,Asia
4041,4041,Bursa,Turkey,40.19266,29.08403,1700,60000,/01/01,1700/01/01, 00:00:00,1700/01/01 00:00:00,0.002603275,Asia
4042,4042,Changsha,China,28.196111,112.972222,1700,60000,/01/01,1700/01/01, 00:00:00,1700/01/01 00:00:00,0.002603275,Asia
4043,4043,Katsina,Nigeria,12.98943,7.60063,1700,60000,/01/01,1700/01/01, 00:00:00,1700/01/01 00:00:00,0.002603275,Africa
4044,4044,Qazvin,Iran,36.26877,50.0041,1700,60000,/01/01,1700/01/01, 00:00:00,1700/01/01 00:00:00,0.002603275,Asia
4045,4045,Srirangapatna,India,12.417956,76.694687,1700,60000,/01/01,1700/01/01, 00:00:00,1700/01/01 00:00:00,0.002603275,Asia
4046,4046,Ujjain,India,23.18239,75.77643,1700,60000,/01/01,1700/01/01, 00:00:00,1700/01/01 00:00:00,0.002603275,Asia
4047,4047,Xiamen,China,24.47979,118.08187,1700,60000,/01/01,1700/01/01, 00:00:00,1700/01/01 00:00:00,0.002603275,Asia
4159,4159,Hue,Vietnam,16.46667,107.6,1700,59000,/01/01,1700/01/01, 00:00:00,1700/01/01 00:00:00,0.002559797,Asia
4160,4160,Nagasaki,Japan,32.752558,129.878192,1700,59000,/01/01,1700/01/01, 00:00:00,1700/01/01 00:00:00,0.002559797,Asia
4257,4257,Leiden,Netherlands,52.15833,4.49306,1700,56000,/01/01,1700/01/01, 00:00:00,1700/01/01 00:00:00,0.002429361,Europe
4316,4316,Rotterdam,Netherlands,51.9225,4.47917,1700,55000,/01/01,1700/01/01, 00:00:00,1700/01/01 00:00:00,0.0023858829999999997,Europe
4317,4317,Tainan City,China,22.983333,120.18333,1700,55000,/01/01,1700/01/01, 00:00:00,1700/01/01 00:00:00,0.0023858829999999997,Asia
4314,4314,Lille,France,50.628442,3.054975,1700,55000,/01/01,1700/01/01, 00:00:00,1700/01/01 00:00:00,0.0023858829999999997,Europe
4315,4315,Pyongyang,North Korea,39.03385,125.75432,1700,55000,/01/01,1700/01/01, 00:00:00,1700/01/01 00:00:00,0.0023858829999999997,Asia
4313,4313,Jinan,China,36.650997,117.120497,1700,55000,/01/01,1700/01/01, 00:00:00,1700/01/01 00:00:00,0.0023858829999999997,Asia
4378,4378,Amber,India,26.985847,75.888251,1700,54000,/01/01,1700/01/01, 00:00:00,1700/01/01 00:00:00,0.0023424039999999998,Asia
4379,4379,Lahore,Pakistan,31.54972,74.34361,1700,54000,/01/01,1700/01/01, 00:00:00,1700/01/01 00:00:00,0.0023424039999999998,Asia
4380,4380,Udaipur,India,24.57127,73.691544,1700,54000,/01/01,1700/01/01, 00:00:00,1700/01/01 00:00:00,0.0023424039999999998,Asia
4437,4437,Hiroshima,Japan,34.396775,132.460017,1700,53000,/01/01,1700/01/01, 00:00:00,1700/01/01 00:00:00,0.002298926,Asia
4528,4528,Kagoshima,Japan,31.5966,130.557183,1700,51000,/01/01,1700/01/01, 00:00:00,1700/01/01 00:00:00,0.002211969,Asia
4798,4798,Nanhai,China,23.016667,113.116667,1700,50000,/01/01,1700/01/01, 00:00:00,1700/01/01 00:00:00,0.00216849,Asia
4804,4804,Zaria,Nigeria,11.11128,7.7227,1700,50000,/01/01,1700/01/01, 00:00:00,1700/01/01 00:00:00,0.00216849,Africa
4803,4803,Verona,Italy,45.43419,10.99779,1700,50000,/01/01,1700/01/01, 00:00:00,1700/01/01 00:00:00,0.00216849,Europe
4802,4802,Surat,India,21.19594,72.83023,1700,50000,/01/01,1700/01/01, 00:00:00,1700/01/01 00:00:00,0.00216849,Asia
4801,4801,Rabat,Morocco,34.01325,-6.83255,1700,50000,/01/01,1700/01/01, 00:00:00,1700/01/01 00:00:00,0.00216849,Africa
4799,4799,Nkazargamu,Nigeria,13.047222,12.227778,1700,50000,/01/01,1700/01/01, 00:00:00,1700/01/01 00:00:00,0.00216849,Africa
4800,4800,Oyo,Nigeria,7.85,3.93333,1700,50000,/01/01,1700/01/01, 00:00:00,1700/01/01 00:00:00,0.00216849,Africa
4797,4797,Mecca,Saudi Arabia,21.42667,39.82611,1700,50000,/01/01,1700/01/01, 00:00:00,1700/01/01 00:00:00,0.00216849,Asia
4795,4795,Gdansk,Poland,54.352025,18.64663,1700,50000,/01/01,1700/01/01, 00:00:00,1700/01/01 00:00:00,0.00216849,Europe
4794,4794,Cossimbazar,India,24.1167,88.2833,1700,50000,/01/01,1700/01/01, 00:00:00,1700/01/01 00:00:00,0.00216849,Asia
4793,4793,Chengdu,China,30.66667,104.06667,1700,50000,/01/01,1700/01/01, 00:00:00,1700/01/01 00:00:00,0.00216849,Asia
4792,4792,Chanda,India,26.064269,82.315343,1700,50000,/01/01,1700/01/01, 00:00:00,1700/01/01 00:00:00,0.00216849,Asia
4791,4791,Baghdad,Iraq,33.34058,44.40088,1700,50000,/01/01,1700/01/01, 00:00:00,1700/01/01 00:00:00,0.00216849,Asia
4796,4796,Huai'an,China,33.5,119.133333,1700,50000,/01/01,1700/01/01, 00:00:00,1700/01/01 00:00:00,0.00216849,Asia
4921,4921,Gent,Belgium,51.053469,3.730378,1700,49000,/01/01,1700/01/01, 00:00:00,1700/01/01 00:00:00,0.002125012,Europe
4989,4989,Achin,Indonesia,5.55,95.316667,1700,48000,/01/01,1700/01/01, 00:00:00,1700/01/01 00:00:00,0.002081533,Asia
4990,4990,Haarlem,Netherlands,52.38084,4.63683,1700,48000,/01/01,1700/01/01, 00:00:00,1700/01/01 00:00:00,0.002081533,Europe
4991,4991,Prague,Austria,50.08804,14.42076,1700,48000,/01/01,1700/01/01, 00:00:00,1700/01/01 00:00:00,0.002081533,Europe
4992,4992,Stockholm,Sweden,59.33258,18.0649,1700,48000,/01/01,1700/01/01, 00:00:00,1700/01/01 00:00:00,0.002081533,Europe
5184,5184,Messina,Italy,38.19327,15.54969,1700,45000,/01/01,1700/01/01, 00:00:00,1700/01/01 00:00:00,0.0019510979999999999,Europe
5187,5187,Yangzhou,China,32.4,铆_っ_铆_芭_119.416667,1700,45000,/01/01,1700/01/01, 00:00:00,1700/01/01 00:00:00,0.0019510979999999999,Asia
5186,5186,Shanghai,China,31.22222,121.45806,1700,45000,/01/01,1700/01/01, 00:00:00,1700/01/01 00:00:00,0.0019510979999999999,Asia
5185,5185,Okayama,Japan,34.661753,133.916667,1700,45000,/01/01,1700/01/01, 00:00:00,1700/01/01 00:00:00,0.0019510979999999999,Asia
5183,5183,Kerman,Iran,30.28321,57.07879,1700,45000,/01/01,1700/01/01, 00:00:00,1700/01/01 00:00:00,0.0019510979999999999,Asia
5181,5181,Ankara,Turkey,39.91987,32.85427,1700,45000,/01/01,1700/01/01, 00:00:00,1700/01/01 00:00:00,0.0019510979999999999,Asia
5180,5180,Agades,Niger,16.966667,7.983333,1700,45000,/01/01,1700/01/01, 00:00:00,1700/01/01 00:00:00,0.0019510979999999999,Africa
5182,5182,Basra,Iraq,30.5,47.816667,1700,45000,/01/01,1700/01/01, 00:00:00,1700/01/01 00:00:00,0.0019510979999999999,Asia
5319,5319,Barcelona,Spain,41.38879,2.15899,1700,43000,/01/01,1700/01/01, 00:00:00,1700/01/01 00:00:00,0.0018641410000000001,Europe
5320,5320,Tsinkiang,China,24.913889,118.58583,1700,43000,/01/01,1700/01/01, 00:00:00,1700/01/01 00:00:00,0.0018641410000000001,Asia
5321,5321,Turin,Italy,45.07049,7.68682,1700,43000,/01/01,1700/01/01, 00:00:00,1700/01/01 00:00:00,0.0018641410000000001,Europe
5397,5397,Faizabad,India,26.779386,82.142169,1700,42000,/01/01,1700/01/01, 00:00:00,1700/01/01 00:00:00,0.001820662,Asia
5710,5710,Nantes,France,47.21725,-1.55336,1700,40000,/01/01,1700/01/01, 00:00:00,1700/01/01 00:00:00,0.001733705,Europe
5714,5714,Vilnius,Lithuania,54.683333,25.283333,1700,40000,/01/01,1700/01/01, 00:00:00,1700/01/01 00:00:00,0.001733705,Europe
5713,5713,Valencia,Spain,39.469908,-0.376289,1700,40000,/01/01,1700/01/01, 00:00:00,1700/01/01 00:00:00,0.001733705,Europe
5712,5712,Thessaloniki,Greece,40.63935,22.944606,1700,40000,/01/01,1700/01/01, 00:00:00,1700/01/01 00:00:00,0.001733705,Europe
5711,5711,Sira,India,13.74155,76.9043,1700,40000,/01/01,1700/01/01, 00:00:00,1700/01/01 00:00:00,0.001733705,Asia
5706,5706,Belgrade,Serbia,44.80401,20.46513,1700,40000,/01/01,1700/01/01, 00:00:00,1700/01/01 00:00:00,0.001733705,Europe
5709,5709,Jodhpur,India,26.26841,73.00594,1700,40000,/01/01,1700/01/01, 00:00:00,1700/01/01 00:00:00,0.001733705,Asia
5708,5708,Hanoi,Vietnam,21.033333,105.85,1700,40000,/01/01,1700/01/01, 00:00:00,1700/01/01 00:00:00,0.001733705,Asia
5707,5707,Bordeaux,France,44.84044,-0.5805,1700,40000,/01/01,1700/01/01, 00:00:00,1700/01/01 00:00:00,0.001733705,Europe
5705,5705,Allada,Benin,6.66547,2.15138,1700,40000,/01/01,1700/01/01, 00:00:00,1700/01/01 00:00:00,0.001733705,Africa
5715,5715,Wroclaw,Germany,51.116667,17.033333,1700,40000,/01/01,1700/01/01, 00:00:00,1700/01/01 00:00:00,0.001733705,Europe
5838,5838,Toulon,France,43.11667,5.93333,1700,39648,/01/01,1700/01/01, 00:00:00,1700/01/01 00:00:00,0.001718401,Europe
5851,5851,Kunming,China,25.03889,102.71833,1700,39000,/01/01,1700/01/01, 00:00:00,1700/01/01 00:00:00,0.001690227,Asia
5902,5902,Toulouse,France,43.60426,1.44367,1700,38000,/01/01,1700/01/01, 00:00:00,1700/01/01 00:00:00,0.001646748,Europe
5901,5901,Mumbai,India,19.07283,72.88261,1700,38000,/01/01,1700/01/01, 00:00:00,1700/01/01 00:00:00,0.001646748,Asia
5954,5954,Lima,Peru,-12.04318,-77.02824,1700,37259,/01/01,1700/01/01, 00:00:00,1700/01/01 00:00:00,0.001614531,Americas
5977,5977,Medina,Saudi Arabia,24.4609,39.620189,1700,37000,/01/01,1700/01/01, 00:00:00,1700/01/01 00:00:00,0.00160327,Asia
5980,5980,Qum,Iran,34.64,50.876389,1700,37000,/01/01,1700/01/01, 00:00:00,1700/01/01 00:00:00,0.00160327,Asia
5978,5978,Orleans,France,47.902964,1.90925,1700,37000,/01/01,1700/01/01, 00:00:00,1700/01/01 00:00:00,0.00160327,Europe
5979,5979,Padua,Italy,45.406436,11.876761,1700,37000,/01/01,1700/01/01, 00:00:00,1700/01/01 00:00:00,0.00160327,Europe
5976,5976,Konigsberg,Germany,54.716667,20.516667,1700,37000,/01/01,1700/01/01, 00:00:00,1700/01/01 00:00:00,0.00160327,Europe
5975,5975,Guiyang,China,26.647661,106.630154,1700,37000,/01/01,1700/01/01, 00:00:00,1700/01/01 00:00:00,0.00160327,Asia
5974,5974,Cologne,Germany,50.937531,6.960278,1700,37000,/01/01,1700/01/01, 00:00:00,1700/01/01 00:00:00,0.00160327,Europe
6188,6188,Granada,Spain,37.177336,-3.598558,1700,35000,/01/01,1700/01/01, 00:00:00,1700/01/01 00:00:00,0.0015163129999999998,Europe
6195,6195,Zacatecas,Mexico,22.76843,-102.58141,1700,35000,/01/01,1700/01/01, 00:00:00,1700/01/01 00:00:00,0.0015163129999999998,Americas
6194,6194,Parma,Italy,44.80266,10.32898,1700,35000,/01/01,1700/01/01, 00:00:00,1700/01/01 00:00:00,0.0015163129999999998,Europe
6193,6193,Oruro,Bolivia,-17.98333,-67.15,1700,35000,/01/01,1700/01/01, 00:00:00,1700/01/01 00:00:00,0.0015163129999999998,Americas
6192,6192,Luoyang,China,34.669722,112.442222,1700,35000,/01/01,1700/01/01, 00:00:00,1700/01/01 00:00:00,0.0015163129999999998,Asia
6191,6191,Liege,Belgium,50.63373,5.56749,1700,35000,/01/01,1700/01/01, 00:00:00,1700/01/01 00:00:00,0.0015163129999999998,Europe
6190,6190,Kano,Nigeria,12.00012,8.51672,1700,35000,/01/01,1700/01/01, 00:00:00,1700/01/01 00:00:00,0.0015163129999999998,Africa
6189,6189,Jakarta,Indonesia,-6.21462,106.84513,1700,35000,/01/01,1700/01/01, 00:00:00,1700/01/01 00:00:00,0.0015163129999999998,Asia
6186,6186,Edinburgh,United Kingdom,55.95206,-3.19648,1700,35000,/01/01,1700/01/01, 00:00:00,1700/01/01 00:00:00,0.0015163129999999998,Europe
6185,6185,Diyarbakir,Turkey,37.914411,40.230628,1700,35000,/01/01,1700/01/01, 00:00:00,1700/01/01 00:00:00,0.0015163129999999998,Asia
6184,6184,Cuttack,India,20.46497,85.87927,1700,35000,/01/01,1700/01/01, 00:00:00,1700/01/01 00:00:00,0.0015163129999999998,Asia
6183,6183,Cambay,India,22.313114,72.619408,1700,35000,/01/01,1700/01/01, 00:00:00,1700/01/01 00:00:00,0.0015163129999999998,Asia
6182,6182,Caen,France,49.18585,-0.35912,1700,35000,/01/01,1700/01/01, 00:00:00,1700/01/01 00:00:00,0.0015163129999999998,Europe
6187,6187,Frankfurt am Main,Germany,50.110922,8.682128,1700,35000,/01/01,1700/01/01, 00:00:00,1700/01/01 00:00:00,0.0015163129999999998,Europe
6181,6181,Brugge,Belgium,51.210819,3.224936,1700,35000,/01/01,1700/01/01, 00:00:00,1700/01/01 00:00:00,0.0015163129999999998,Europe
6395,6395,Tours,France,47.38333,0.68333,1700,33000,/01/01,1700/01/01, 00:00:00,1700/01/01 00:00:00,0.0014293560000000001,Europe
6492,6492,Amiens,France,49.892,2.299,1700,32000,/01/01,1700/01/01, 00:00:00,1700/01/01 00:00:00,0.0013858770000000002,Europe
6574,6574,Cadiz,Spain,36.52978,-6.29465,1700,31000,/01/01,1700/01/01, 00:00:00,1700/01/01 00:00:00,0.001342399,Europe
6575,6575,Piacenza,Italy,45.04676,9.69937,1700,31000,/01/01,1700/01/01, 00:00:00,1700/01/01 00:00:00,0.001342399,Europe
6849,6849,Sennar,Sudan,13.567469,33.567203,1700,30000,/01/01,1700/01/01, 00:00:00,1700/01/01 00:00:00,0.00129892,Africa
6847,6847,Nanchang,China,28.68333,115.88333,1700,30000,/01/01,1700/01/01, 00:00:00,1700/01/01 00:00:00,0.00129892,Asia
6848,6848,Quito,Ecuador,-0.22985,-78.52495,1700,30000,/01/01,1700/01/01, 00:00:00,1700/01/01 00:00:00,0.00129892,Africa
6845,6845,Manila,Philippines,14.58,121,1700,30000,/01/01,1700/01/01, 00:00:00,1700/01/01 00:00:00,0.00129892,Asia
6850,6850,Shenyang,China,41.79222,123.43278,1700,30000,/01/01,1700/01/01, 00:00:00,1700/01/01 00:00:00,0.00129892,Asia
6851,6851,Sofia,Bulgaria,42.69751,23.32415,1700,30000,/01/01,1700/01/01, 00:00:00,1700/01/01 00:00:00,0.00129892,Europe
6852,6852,Tiruchirappalli,India,10.805,78.685556,1700,30000,/01/01,1700/01/01, 00:00:00,1700/01/01 00:00:00,0.00129892,Asia
6846,6846,Masenya,Chad,11.402536,16.171328,1700,30000,/01/01,1700/01/01, 00:00:00,1700/01/01 00:00:00,0.00129892,Africa
6839,6839,Constantine,Algeria,36.365,6.61472,1700,30000,/01/01,1700/01/01, 00:00:00,1700/01/01 00:00:00,0.00129892,Africa
6844,6844,Malaga,Spain,36.721261,-4.421267,1700,30000,/01/01,1700/01/01, 00:00:00,1700/01/01 00:00:00,0.00129892,Europe
6842,6842,Krakow,Poland,50.06143,19.93658,1700,30000,/01/01,1700/01/01, 00:00:00,1700/01/01 00:00:00,0.00129892,Europe
6841,6841,Guatemala City,Guatemala,14.64072,-90.51327,1700,30000,/01/01,1700/01/01, 00:00:00,1700/01/01 00:00:00,0.00129892,Americas
6840,6840,Cuzco,Peru,-13.525,-71.972222,1700,30000,/01/01,1700/01/01, 00:00:00,1700/01/01 00:00:00,0.00129892,Americas
6837,6837,Bihar,India,25.096074,85.313119,1700,30000,/01/01,1700/01/01, 00:00:00,1700/01/01 00:00:00,0.00129892,Asia
6838,6838,Chibiri,Ghana,6.82,-2.42,1700,30000,/01/01,1700/01/01, 00:00:00,1700/01/01 00:00:00,0.00129892,Africa
6843,6843,Loango,Congo,-4.630225,11.835006,1700,30000,/01/01,1700/01/01, 00:00:00,1700/01/01 00:00:00,0.00129892,Africa
7060,7060,Norwich,United Kingdom,52.62783,1.29834,1700,29000,/01/01,1700/01/01, 00:00:00,1700/01/01 00:00:00,0.001255442,Europe
7061,7061,Zaragoza,Spain,41.648792,-0.889581,1700,29000,/01/01,1700/01/01, 00:00:00,1700/01/01 00:00:00,0.001255442,Europe
7124,7124,Metz,France,49.11911,6.17269,1700,28000,/01/01,1700/01/01, 00:00:00,1700/01/01 00:00:00,0.001211963,Europe
7125,7125,Serres,Greece,41.090922,23.541319,1700,28000,/01/01,1700/01/01, 00:00:00,1700/01/01 00:00:00,0.001211963,Europe
7209,7209,Plovdiv,Bulgaria,42.15,24.75,1700,27000,/01/01,1700/01/01, 00:00:00,1700/01/01 00:00:00,0.001168485,Europe
7210,7210,Strasbourg,France,48.58342,7.74296,1700,27000,/01/01,1700/01/01, 00:00:00,1700/01/01 00:00:00,0.001168485,Europe
7208,7208,Ferrara,Italy,44.82678,11.62071,1700,27000,/01/01,1700/01/01, 00:00:00,1700/01/01 00:00:00,0.001168485,Europe
7207,7207,Cordoba,Spain,38.046133,-4.893564,1700,27000,/01/01,1700/01/01, 00:00:00,1700/01/01 00:00:00,0.001168485,Europe
7276,7276,Augsberg,Germany,48.371444,10.898239,1700,26000,/01/01,1700/01/01, 00:00:00,1700/01/01 00:00:00,0.001125006,Europe
7277,7277,Berlin,Germany,52.52437,13.41053,1700,26000,/01/01,1700/01/01, 00:00:00,1700/01/01 00:00:00,0.001125006,Europe
7278,7278,Ruse,Bulgaria,43.835572,25.965656,1700,26000,/01/01,1700/01/01, 00:00:00,1700/01/01 00:00:00,0.001125006,Europe
7279,7279,Salvador,Brazil,-12.97111,-38.51083,1700,26000,/01/01,1700/01/01, 00:00:00,1700/01/01 00:00:00,0.001125006,Americas
7280,7280,The Hague,Netherlands,52.070492,4.300694,1700,26000,/01/01,1700/01/01, 00:00:00,1700/01/01 00:00:00,0.001125006,Europe
7460,7460,Toledo,Spain,39.862831,-4.027322,1700,25000,/01/01,1700/01/01, 00:00:00,1700/01/01 00:00:00,0.001081528,Europe
7459,7459,Tokushima,Japan,34.070269,134.554844,1700,25000,/01/01,1700/01/01, 00:00:00,1700/01/01 00:00:00,0.001081528,Asia
7455,7455,Murcia,Spain,37.98704,-1.13004,1700,25000,/01/01,1700/01/01, 00:00:00,1700/01/01 00:00:00,0.001081528,Europe
7457,7457,Pondicherry,India,11.91386,79.814472,1700,25000,/01/01,1700/01/01, 00:00:00,1700/01/01 00:00:00,0.001081528,Asia
7456,7456,Newcastle upon Tyne,United Kingdom,54.978253,-1.617781,1700,25000,/01/01,1700/01/01, 00:00:00,1700/01/01 00:00:00,0.001081528,Europe
7458,7458,Pune,India,18.52043,73.856744,1700,25000,/01/01,1700/01/01, 00:00:00,1700/01/01 00:00:00,0.001081528,Asia
7454,7454,Middelburg,Netherlands,51.5,3.61389,1700,25000,/01/01,1700/01/01, 00:00:00,1700/01/01 00:00:00,0.001081528,Europe
7452,7452,Havana,Cuba,23.13302,-82.38304,1700,25000,/01/01,1700/01/01, 00:00:00,1700/01/01 00:00:00,0.001081528,Americas
7451,7451,Bristol,United Kingdom,51.45523,-2.59665,1700,25000,/01/01,1700/01/01, 00:00:00,1700/01/01 00:00:00,0.001081528,Europe
7450,7450,Benin,Nigeria,6.339081,5.626483,1700,25000,/01/01,1700/01/01, 00:00:00,1700/01/01 00:00:00,0.001081528,Africa
7453,7453,Marrakech,Morocco,31.63416,-7.99994,1700,25000,/01/01,1700/01/01, 00:00:00,1700/01/01 00:00:00,0.001081528,Africa
7620,7620,Mainz,Germany,49.98419,8.2791,1700,24000,/01/01,1700/01/01, 00:00:00,1700/01/01 00:00:00,0.0010380489999999999,Europe
7623,7623,Valletta,Malta,35.89972,14.51472,1700,24000,/01/01,1700/01/01, 00:00:00,1700/01/01 00:00:00,0.0010380489999999999,Europe
7622,7622,Silistra,Bulgaria,44.114728,27.267189,1700,24000,/01/01,1700/01/01, 00:00:00,1700/01/01 00:00:00,0.0010380489999999999,Europe
7621,7621,Munich,Germany,48.136739,11.576756,1700,24000,/01/01,1700/01/01, 00:00:00,1700/01/01 00:00:00,0.0010380489999999999,Europe
7619,7619,Madras,India,13.08784,80.27847,1700,24000,/01/01,1700/01/01, 00:00:00,1700/01/01 00:00:00,0.0010380489999999999,Asia
7618,7618,Erzurum,Turkey,39.90861,41.27694,1700,24000,/01/01,1700/01/01, 00:00:00,1700/01/01 00:00:00,0.0010380489999999999,Asia
7617,7617,Ayacucho,Peru,-13.1615,-74.22154,1700,24000,/01/01,1700/01/01, 00:00:00,1700/01/01 00:00:00,0.0010380489999999999,Americas
7616,7616,Arles,France,43.6767,4.6278,1700,24000,/01/01,1700/01/01, 00:00:00,1700/01/01 00:00:00,0.0010380489999999999,Europe
7715,7715,Dordrecht,Netherlands,51.81,4.67361,1700,23000,/01/01,1700/01/01, 00:00:00,1700/01/01 00:00:00,0.000994571,Europe
7719,7719,Saint-Malo,France,48.649336,-2.025675,1700,23000,/01/01,1700/01/01, 00:00:00,1700/01/01 00:00:00,0.000994571,Europe
7718,7718,Oporto,Portugal,41.167972,-8.627064,1700,23000,/01/01,1700/01/01, 00:00:00,1700/01/01 00:00:00,0.000994571,Europe
7717,7717,Merida,Mexico,20.979719,-89.615789,1700,23000,/01/01,1700/01/01, 00:00:00,1700/01/01 00:00:00,0.000994571,Americas
7716,7716,Feodosia,Russian Federation,45.048889,35.379167,1700,23000,/01/01,1700/01/01, 00:00:00,1700/01/01 00:00:00,0.000994571,Europe
7713,7713,Avignon,France,43.94834,4.80892,1700,23000,/01/01,1700/01/01, 00:00:00,1700/01/01 00:00:00,0.000994571,Europe
7712,7712,Angers,France,47.46667,-0.55,1700,23000,/01/01,1700/01/01, 00:00:00,1700/01/01 00:00:00,0.000994571,Europe
7714,7714,Cremona,Italy,45.13617,10.02797,1700,23000,/01/01,1700/01/01, 00:00:00,1700/01/01 00:00:00,0.000994571,Europe
7711,7711,Aix,France,43.526304,铆_っ_铆_芭_5.445429,1700,23000,/01/01,1700/01/01, 00:00:00,1700/01/01 00:00:00,0.000994571,Europe
7777,7777,Montpellier,France,43.61092,3.87723,1700,22500,/01/01,1700/01/01, 00:00:00,1700/01/01 00:00:00,0.0009728310000000001,Europe
7834,7834,Pavia,Italy,45.18446,9.16145,1700,22000,/01/01,1700/01/01, 00:00:00,1700/01/01 00:00:00,0.000951092,Europe
7830,7830,Bremen,Germany,53.07516,8.80777,1700,22000,/01/01,1700/01/01, 00:00:00,1700/01/01 00:00:00,0.000951092,Europe
7831,7831,Brescia,Italy,45.52478,10.22727,1700,22000,/01/01,1700/01/01, 00:00:00,1700/01/01 00:00:00,0.000951092,Europe
7832,7832,Dresden,Germany,51.05089,13.73832,1700,22000,/01/01,1700/01/01, 00:00:00,1700/01/01 00:00:00,0.000951092,Europe
7833,7833,Lucca,Italy,43.84357,10.50585,1700,22000,/01/01,1700/01/01, 00:00:00,1700/01/01 00:00:00,0.000951092,Europe
7835,7835,Reims,France,49.25,4.03333,1700,22000,/01/01,1700/01/01, 00:00:00,1700/01/01 00:00:00,0.000951092,Europe
7886,7886,Leipzig,Germany,51.33962,12.37129,1700,21696,/01/01,1700/01/01, 00:00:00,1700/01/01 00:00:00,0.000937875,Europe
7942,7942,Lubeck,Germany,53.865886,10.687097,1700,21000,/01/01,1700/01/01, 00:00:00,1700/01/01 00:00:00,0.000907614,Europe
7943,7943,Mantova,Italy,45.156417,10.791375,1700,21000,/01/01,1700/01/01, 00:00:00,1700/01/01 00:00:00,0.000907614,Europe
7944,7944,Warsaw,Poland,52.22977,21.01178,1700,21000,/01/01,1700/01/01, 00:00:00,1700/01/01 00:00:00,0.000907614,Europe
8134,8134,Valenciennes,France,50.35,3.53333,1700,20000,/01/01,1700/01/01, 00:00:00,1700/01/01 00:00:00,0.000864135,Europe
8132,8132,Tbilisi,Georgia,41.709975,44.792989,1700,20000,/01/01,1700/01/01, 00:00:00,1700/01/01 00:00:00,0.000864135,Asia
8135,8135,Versailles,France,48.8,2.13333,1700,20000,/01/01,1700/01/01, 00:00:00,1700/01/01 00:00:00,0.000864135,Europe
8133,8133,Utrecht,Netherlands,52.09083,5.12222,1700,20000,/01/01,1700/01/01, 00:00:00,1700/01/01 00:00:00,0.000864135,Europe
8129,8129,Lvov,Poland,49.839683,24.029717,1700,20000,/01/01,1700/01/01, 00:00:00,1700/01/01 00:00:00,0.000864135,Europe
8131,8131,Targoviste,Romania,44.924167,25.456667,1700,20000,/01/01,1700/01/01, 00:00:00,1700/01/01 00:00:00,0.000864135,Europe
8130,8130,Rio de Janeiro,Brazil,-22.90278,-43.2075,1700,20000,/01/01,1700/01/01, 00:00:00,1700/01/01 00:00:00,0.000864135,Americas
8128,8128,Goa,India,15.299333,74.124,1700,20000,/01/01,1700/01/01, 00:00:00,1700/01/01 00:00:00,0.000864135,Asia
8127,8127,Delft,Netherlands,52.00667,4.35556,1700,20000,/01/01,1700/01/01, 00:00:00,1700/01/01 00:00:00,0.000864135,Europe
8220,8220,Macao,China,22.1667,113.55,1700,19500,/01/01,1700/01/01, 00:00:00,1700/01/01 00:00:00,0.000842396,Asia
8362,8362,Bakhchiserai,Ukraine,44.755286,33.867233,1700,18000,/01/01,1700/01/01, 00:00:00,1700/01/01 00:00:00,0.000777178,Europe
8363,8363,Bratislava,Slovakia,48.145892,17.107136,1700,18000,/01/01,1700/01/01, 00:00:00,1700/01/01 00:00:00,0.000777178,Europe
8364,8364,Kazan,Russian Federation,55.790278,49.134722,1700,18000,/01/01,1700/01/01, 00:00:00,1700/01/01 00:00:00,0.000777178,Europe
8365,8365,Poitiers,France,46.58333,0.33333,1700,18000,/01/01,1700/01/01, 00:00:00,1700/01/01 00:00:00,0.000777178,Europe
8366,8366,Valladolid,Spain,41.65518,-4.72372,1700,18000,/01/01,1700/01/01, 00:00:00,1700/01/01 00:00:00,0.000777178,Europe
8367,8367,Varna,Bulgaria,43.21667,27.91667,1700,18000,/01/01,1700/01/01, 00:00:00,1700/01/01 00:00:00,0.000777178,Europe
8417,8417,Clermont,France,45.7831,3.0824,1700,17108,/01/01,1700/01/01, 00:00:00,1700/01/01 00:00:00,0.000738395,Europe
8440,8440,Arras,France,50.291,2.777533,1700,17000,/01/01,1700/01/01, 00:00:00,1700/01/01 00:00:00,0.0007337000000000001,Europe
8441,8441,Braunschweig,Germany,52.268875,10.526769,1700,17000,/01/01,1700/01/01, 00:00:00,1700/01/01 00:00:00,0.0007337000000000001,Europe
8442,8442,Prizren,Serbia,42.21389,20.73972,1700,17000,/01/01,1700/01/01, 00:00:00,1700/01/01 00:00:00,0.0007337000000000001,Europe
8510,8510,Recife,Brazil,-8.05389,-34.88111,1700,16000,/01/01,1700/01/01, 00:00:00,1700/01/01 00:00:00,0.0006902210000000001,Americas
8509,8509,Guanajuato,Mexico,21.01858,-101.2591,1700,16000,/01/01,1700/01/01, 00:00:00,1700/01/01 00:00:00,0.0006902210000000001,Americas
8619,8619,Aachen,Germany,50.77664,6.08342,1700,15000,/01/01,1700/01/01, 00:00:00,1700/01/01 00:00:00,0.0006467430000000001,Europe
8620,8620,Birmingham,United Kingdom,52.48142,-1.89983,1700,15000,/01/01,1700/01/01, 00:00:00,1700/01/01 00:00:00,0.0006467430000000001,Euorpe
8621,8621,Guadalajara,Mexico,20.673819,-103.343489,1700,15000,/01/01,1700/01/01, 00:00:00,1700/01/01 00:00:00,0.0006467430000000001,Americas
8622,8622,Leghorn,Italy,43.55,10.310579,1700,15000,/01/01,1700/01/01, 00:00:00,1700/01/01 00:00:00,0.0006467430000000001,Europe
8725,8725,Le Havre,France,49.494369,0.107931,1700,13860,/01/01,1700/01/01, 00:00:00,1700/01/01 00:00:00,0.000597177,Europe
8790,8790,Caracas,Venezuela,10.48801,-66.87919,1700,12500,/01/01,1700/01/01, 00:00:00,1700/01/01 00:00:00,0.000538046,Americas
8842,8842,Montauban,France,44.01667,1.35,1700,12000,/01/01,1700/01/01, 00:00:00,1700/01/01 00:00:00,0.0005163069999999999,Europe
8843,8843,Shkoder,Albania,42.0743,19.527661,1700,12000,/01/01,1700/01/01, 00:00:00,1700/01/01 00:00:00,0.0005163069999999999,Europe
9062,9062,Plymouth,United Kingdom,50.375456,-4.14305,1700,8000,/01/01,1700/01/01, 00:00:00,1700/01/01 00:00:00,0.000342393,Euorpe
9118,9118,Boston,United States of America,42.358431,-71.059772,1700,6700,/01/01,1700/01/01, 00:00:00,1700/01/01 00:00:00,0.000285871,Americas
9178,9178,Liverpool,United Kingdom,53.408372,-2.991572,1700,5000,/01/01,1700/01/01, 00:00:00,1700/01/01 00:00:00,0.000211958,Euorpe
9201,9201,Philadelphia,United States of America,39.95,-75.1667,1700,4400,/01/01,1700/01/01, 00:00:00,1700/01/01 00:00:00,0.000185871,Americas
9270,9270,Bath,United Kingdom,51.37795,-2.35907,1700,2000,/01/01,1700/01/01, 00:00:00,1700/01/01 00:00:00,8.149999999999999e-05,Europe
9271,9271,Worms,Germany,49.63278,8.35916,1700,2000,/01/01,1700/01/01, 00:00:00,1700/01/01 00:00:00,8.149999999999999e-05,Europe
9281,9281,Buenos Aires,Argentina,-34.61315,-58.37723,1700,1600,/01/01,1700/01/01, 00:00:00,1700/01/01 00:00:00,6.409999999999999e-05,Americas
